City_ID,City,Lat,Lng,Max Temp,Humidity,Cloudiness,Wind Speed,Country,Date
0,champerico,14.3,-91.9167,29.3,65,1,1.94,GT,1704643419
1,tiksi,71.6872,128.8694,-33.67,97,49,3.35,RU,1704643419
2,port-aux-francais,-49.35,70.2167,6.61,96,94,13.46,TF,1704643419
3,berbera,10.4396,45.0143,25.04,69,11,4.35,SO,1704643419
4,qaqortoq,60.7167,-46.0333,1.73,81,97,2.18,GL,1704643420
5,puerto ayora,-0.7393,-90.3518,28.98,92,94,2.24,EC,1704643420
6,buka,40.8108,69.1986,9.22,83,100,3.79,UZ,1704643420
7,stamford,41.0534,-73.5387,3.34,91,100,2.68,US,1704643277
8,blackmans bay,-43.0167,147.3167,15.07,95,100,2.61,AU,1704643421
9,invercargill,-46.4,168.35,9.56,96,80,2.06,NZ,1704643421
10,adamstown,-25.066,-130.1015,22.79,76,100,8.04,PN,1704643421
11,waitangi,-43.9535,-176.5597,12.12,73,45,7.25,NZ,1704643422
12,ciudad lazaro cardenas,17.9583,-102.2,25.81,57,100,1.34,MX,1704643422
13,nar'yan-mar,67.6713,53.087,-9.94,95,97,4.47,RU,1704643422
14,alice springs,-23.7,133.8833,25.12,77,40,0.89,AU,1704643423
15,avarua,-21.2078,-159.775,26.03,89,20,4.63,CK,1704643423
16,buala,-8.145,159.5921,26.44,82,97,1.43,SB,1704643423
17,okhotsk,59.3833,143.3,-30.88,81,91,4.13,RU,1704643423
18,hawaiian paradise park,19.5933,-154.9731,19.39,98,100,2.06,US,1704643424
19,smithers,54.7804,-127.1743,-4.82,100,75,0.0,CA,1704643424
20,thompson,55.7435,-97.8558,-24.91,77,100,2.06,CA,1704643365
21,grytviken,-54.2811,-36.5092,6.67,64,24,0.38,GS,1704643424
22,hermanus,-34.4187,19.2345,18.36,68,100,4.48,ZA,1704643425
23,santa ana,33.7456,-117.8678,11.67,48,20,8.75,US,1704643203
24,villa gesell,-37.2639,-56.973,25.03,69,0,4.71,AR,1704643425
25,yellowknife,62.456,-114.3525,-35.95,74,20,0.0,CA,1704643287
26,isafjordur,66.0755,-23.124,9.02,66,100,11.32,IS,1704643425
27,port elizabeth,-33.918,25.5701,21.17,81,75,6.17,ZA,1704643426
28,pullman,46.7313,-117.1796,0.13,91,100,3.09,US,1704643426
29,bredasdorp,-34.5322,20.0403,17.96,65,100,3.68,ZA,1704643426
30,ribeira grande,38.5167,-28.7,17.65,67,20,9.26,PT,1704643426
31,kodiak,57.79,-152.4072,1.73,75,0,2.06,US,1704643427
32,st. john's,47.5649,-52.7093,-5.02,71,45,9.39,CA,1704643299
33,enewetak,11.3474,162.3373,26.73,73,84,8.86,MH,1704643427
34,mbanza kongo,-6.267,14.2401,26.51,70,99,1.36,AO,1704643428
35,kashmar,35.2383,58.4656,5.48,48,0,2.23,IR,1704643428
36,ushuaia,-54.8,-68.3,10.81,58,75,12.35,AR,1704643428
37,taulaga,-11.0553,-171.0883,28.82,72,96,4.03,AS,1704643428
38,inhambane,-23.865,35.3833,30.0,62,20,4.12,MZ,1704643342
39,aykhal,66.0,111.5,-25.5,99,100,2.39,RU,1704643304
40,bakchar,57.0186,82.0711,-23.73,99,94,2.22,RU,1704643429
41,stanley,54.868,-1.6985,3.77,94,40,1.54,GB,1704643408
42,bilibino,68.0546,166.4372,-37.77,97,100,0.33,RU,1704643429
43,nova sintra,14.8667,-24.7167,21.29,72,2,7.49,CV,1704643430
44,la passe,45.5549,-0.8967,6.13,71,47,5.63,FR,1704643430
45,albany,42.6001,-73.9662,-0.46,90,100,1.67,US,1704643316
46,ilulissat,69.2167,-51.1,-8.99,73,75,0.0,GL,1704643430
47,edinburgh of the seven seas,-37.0676,-12.3116,16.41,69,100,2.77,SH,1704643431
48,funadhoo,6.15,73.2667,28.05,73,47,1.57,MV,1704643431
49,nikel,69.4128,30.222,-7.9,95,100,4.28,RU,1704643431
50,crane,31.3974,-102.3501,7.85,42,0,9.28,US,1704643432
51,puerto natales,-51.7236,-72.4875,10.25,57,75,12.35,CL,1704643432
52,amble,55.3333,-1.5833,4.42,93,100,4.12,GB,1704643432
53,machico,32.7,-16.7667,22.23,93,75,8.75,PT,1704643433
54,lianhe,47.1333,129.2667,-25.93,98,13,1.54,CN,1704643433
55,rabo de peixe,37.8,-25.5833,17.77,99,20,6.17,PT,1704643433
56,kalevala,65.2,31.1667,-16.06,95,67,3.58,RU,1704643433
57,cabo san lucas,22.8909,-109.9124,21.53,43,5,1.65,MX,1704643007
58,umarkot,25.3616,69.7362,17.65,27,0,4.64,PK,1704643434
59,punta arenas,-53.15,-70.9167,11.06,50,20,10.8,CL,1704643225
60,murzuq,25.9155,13.9184,16.91,20,1,2.3,LY,1704643434
61,kununurra,-15.7667,128.7333,27.99,78,40,1.54,AU,1704643435
62,cabedelo,-6.9811,-34.8339,32.37,58,14,4.61,BR,1704643435
63,smirnykh,49.75,142.8333,-16.86,93,100,1.57,RU,1704643435
64,nagqu,31.5,92.0,-13.08,40,0,2.08,CN,1704643436
65,gwadar,25.1216,62.3254,22.44,62,15,2.01,PK,1704643272
66,malanje,-9.5402,16.341,24.13,71,63,3.0,AO,1704643436
67,tamanrasset,22.785,5.5228,22.95,8,0,4.63,DZ,1704643436
68,mount gambier,-37.8333,140.7667,15.91,94,100,4.46,AU,1704643436
69,igarka,67.4667,86.5833,-22.75,98,100,5.86,RU,1704643437
70,sidi bouzid,35.0382,9.4849,12.86,37,51,8.03,TN,1704643437
71,vadso,70.0744,29.7487,-3.91,86,75,7.2,NO,1704643437
72,"laikit, laikit ii (dimembe)",1.4792,124.9735,24.47,89,40,1.03,ID,1704643438
73,bethel,41.3712,-73.414,1.61,85,100,3.09,US,1704643338
74,arkhangel'sk,64.5401,40.5433,-7.94,100,75,5.0,RU,1704643438
75,chonchi,-42.6128,-73.8092,17.84,65,37,1.71,CL,1704643438
76,iqaluit,63.7506,-68.5145,-27.15,76,20,2.06,CA,1704643439
77,anadyr,64.75,177.4833,-14.72,92,100,9.0,RU,1704643292
78,marsh harbour,26.5412,-77.0636,25.3,76,25,8.04,BS,1704643440
79,huron,41.1501,-82.5499,1.69,93,100,3.64,US,1704643440
80,jayapura,-2.5333,140.7,25.66,92,90,2.25,ID,1704643440
81,wailua homesteads,22.0669,-159.378,22.24,84,20,2.06,US,1704643441
82,carutapera,-1.195,-46.02,27.15,85,100,2.16,BR,1704643441
83,cova figueira,14.8905,-24.2934,22.66,68,0,6.6,CV,1704643441
84,al ghayzah,16.2079,52.176,24.51,33,5,3.7,YE,1704643441
85,college,64.8569,-147.8028,-12.01,78,75,3.6,US,1704643442
86,saint-pierre,-21.3393,55.4781,26.82,78,0,9.26,RE,1704643158
87,gunjur,13.2019,-16.7339,38.04,13,0,3.09,GM,1704643442
88,queenstown,-31.8976,26.8753,19.86,76,81,7.02,ZA,1704643299
89,berghem,51.7699,5.5683,0.55,72,20,6.17,NL,1704643445
90,nova venecia,-18.7106,-40.4006,28.55,72,93,2.91,BR,1704643445
91,port douglas,-16.4833,145.4667,27.43,78,89,2.8,AU,1704643445
92,arraial do cabo,-22.9661,-42.0278,30.98,61,20,4.12,BR,1704643446
93,utrik,11.2278,169.8474,26.8,70,59,7.73,MH,1704643446
94,olonkinbyen,70.9221,-8.7187,0.66,86,100,10.14,SJ,1704643446
95,masterton,-40.9597,175.6575,12.16,66,33,1.33,NZ,1704643435
96,smara,26.7384,-11.6719,23.23,28,48,3.44,EH,1704643447
97,keflavik,64.0049,-22.5624,7.24,100,100,12.35,IS,1704643447
98,qamdo,31.1667,97.2333,-8.85,35,14,1.54,CN,1704643447
99,yerofey pavlovich,53.9667,121.9667,-25.43,96,100,0.81,RU,1704643448
100,lianjiang,21.6467,110.2817,18.54,81,11,5.37,CN,1704643448
101,whitehorse,60.7161,-135.0538,-17.57,85,100,7.2,CA,1704643448
102,chul'man,56.8479,124.9104,-39.55,100,97,0.82,RU,1704643448
103,mil'kovo,55.6078,37.7956,-20.87,95,9,2.42,RU,1704643449
104,vilyuchinsk,52.9306,158.4028,-15.04,84,9,3.73,RU,1704643449
105,codrington,-38.2667,141.9667,16.51,97,100,4.74,AU,1704643450
106,san patricio,28.017,-97.5169,18.92,74,100,4.13,US,1704643450
107,sitka,57.0531,-135.33,1.94,80,100,2.06,US,1704643451
108,vorgashor,67.5833,63.95,-24.34,100,100,3.33,RU,1704643451
109,mandalgovi,45.7625,106.2708,-9.74,68,100,3.36,MN,1704643451
110,la'ie,21.6477,-157.9253,20.98,82,6,2.33,US,1704643452
111,yuzhno-kurilsk,44.0306,145.8556,-1.46,79,84,2.8,RU,1704643452
112,segou,13.4317,-6.2157,35.28,8,91,3.44,ML,1704643452
113,quelimane,-17.8786,36.8883,28.97,70,40,5.36,MZ,1704643453
114,tchintabaraden,15.8969,5.7985,30.97,8,43,4.81,NE,1704643453
115,ola,59.5833,151.2833,-32.49,87,16,3.29,RU,1704643453
116,pundong,-7.9522,110.3486,25.39,89,100,2.14,ID,1704643454
117,dalandzadgad,43.5708,104.425,-7.92,57,43,1.35,MN,1704643454
118,soderhamn,61.3037,17.0592,-13.36,95,97,2.23,SE,1704643454
119,krakow,50.0833,19.9167,-3.34,87,75,5.66,PL,1704643022
120,lisala,2.15,21.5167,31.81,29,91,0.55,CD,1704643455
121,nemuro,43.3236,145.575,-1.39,75,65,4.26,JP,1704643456
122,tura,25.5198,90.2201,15.24,51,0,1.45,IN,1704643456
123,berdigestyakh,62.0989,126.6992,-43.4,100,51,1.51,RU,1704643457
124,floro,61.5996,5.0328,0.98,44,75,5.14,NO,1704643457
125,ust-nera,64.5667,143.2,-42.53,99,93,1.68,RU,1704643458
126,borinskoye,52.4569,39.3713,-20.6,96,63,3.28,RU,1704643458
127,sakaiminato,35.55,133.2333,1.99,75,40,5.14,JP,1704643458
128,lagoa,39.05,-27.9833,15.93,69,98,10.79,PT,1704643459
129,tongouson,5.0214,120.1328,27.59,80,95,3.25,PH,1704643459
130,nsanje,-16.92,35.262,31.37,50,100,2.44,MW,1704643459
131,west island,-12.1568,96.8225,27.99,89,75,5.66,CC,1704643460
132,gerash,27.6652,54.1371,16.08,21,0,2.07,IR,1704643460
133,barcelos,41.5388,-8.6151,13.16,63,6,1.2,PT,1704643460
134,hamilton,39.1834,-84.5333,2.7,90,100,6.71,US,1704643400
135,praia da vitoria,38.7333,-27.0667,17.64,63,20,4.03,PT,1704643461
136,afaahiti,-17.75,-149.2833,23.93,81,82,4.45,PF,1704643461
137,boysun,38.2061,67.1986,5.61,84,100,0.42,UZ,1704643461
138,fortuna,40.5982,-124.1573,2.42,97,46,3.6,US,1704643462
139,atafu village,-8.5421,-172.5159,27.67,79,100,2.97,TK,1704643462
140,ulladulla,-35.35,150.4667,19.78,85,100,4.0,AU,1704643462
141,la mira,18.035,-102.3266,25.98,54,100,1.4,MX,1704643463
142,tazovsky,67.4667,78.7,-23.46,93,10,4.03,RU,1704643463
143,egilsstadir,65.2653,-14.3948,2.95,70,0,4.63,IS,1704643464
144,ta`u,-14.2336,-169.5144,28.22,79,96,6.33,AS,1704643464
145,wamba,8.9333,8.6,36.14,8,1,3.11,NG,1704643465
146,ha'il,27.5219,41.6907,18.01,55,0,3.09,SA,1704643465
147,kapa'a,22.0752,-159.319,22.99,84,20,2.06,US,1704643394
148,new richmond,45.123,-92.5366,-3.11,80,100,3.6,US,1704643465
149,vila franca do campo,37.7167,-25.4333,18.27,99,100,5.12,PT,1704643466
150,bonthe,7.5264,-12.505,31.15,60,87,5.89,SL,1704643466
151,tual,-5.6667,132.75,28.92,77,94,4.98,ID,1704643466
152,papatowai,-46.5619,169.4708,10.33,91,54,2.03,NZ,1704643467
153,jiwani,25.05,61.7417,23.21,56,1,2.51,PK,1704643467
154,debark',13.1561,37.8981,12.76,34,58,0.44,ET,1704643468
155,mount isa,-20.7333,139.5,23.87,88,60,0.51,AU,1704643240
156,pionerskiy,54.9508,20.2275,-12.14,80,100,8.17,RU,1704643468
157,foulayronnes,44.2403,0.6452,5.34,75,100,5.14,FR,1704643469
158,bikenibeu village,1.3673,173.1241,26.98,89,75,3.09,KI,1704643469
159,tralee,52.2704,-9.7026,7.14,81,0,1.54,IE,1704643469
160,orchard homes,46.8633,-114.0484,-3.56,90,100,2.06,US,1704643469
161,santiago,-33.4569,-70.6483,27.38,43,0,3.6,CL,1704643420
162,metlaoui,34.3208,8.4016,13.6,41,12,6.48,TN,1704643470
163,portsmouth,50.799,-1.0913,5.51,72,8,4.02,GB,1704643471
164,recreio,-21.525,-42.4692,30.13,65,67,0.96,BR,1704643471
165,new norfolk,-42.7826,147.0587,15.72,99,100,1.0,AU,1704643472
166,yonggwang-up,40.0183,127.4547,-10.55,63,0,2.27,KP,1704643472
167,dudinka,69.4058,86.1778,-19.66,98,100,8.05,RU,1704643472
168,ponta delgada,37.7333,-25.6667,18.44,77,20,6.17,PT,1704643473
169,petropavlovsk-kamchatsky,53.0452,158.6483,-15.86,78,0,5.36,RU,1704643473
170,paka,4.6374,103.4368,26.96,89,99,1.03,MY,1704643473
171,saint-philippe,-21.3585,55.7679,26.77,83,52,6.28,RE,1704643474
172,borba,-4.3878,-59.5939,26.27,78,100,0.88,BR,1704643470
173,okha,53.5739,142.9478,-28.46,97,55,3.12,RU,1704643474
174,rongelap,11.1635,166.8941,27.47,73,100,8.62,MH,1704643474
175,polyarnyy,69.1989,33.4478,-10.04,95,96,6.07,RU,1704643475
176,margaret river,-33.95,115.0667,17.24,77,34,4.75,AU,1704643475
177,tarauaca,-8.1614,-70.7656,25.79,78,99,0.29,BR,1704643476
178,ghat,24.9647,10.1728,21.64,17,24,2.09,LY,1704643476
179,klyuchi,52.2667,79.1667,-5.52,91,92,5.25,RU,1704643476
180,hirara,24.8,125.2833,17.92,67,75,6.17,JP,1704643476
181,yairipok,24.6667,94.0667,11.92,75,0,1.01,IN,1704643477
182,hadibu,12.65,54.0333,23.79,57,5,6.11,YE,1704643477
183,longyearbyen,78.2186,15.6401,-17.09,66,0,5.66,SJ,1704643477
184,port mathurin,-19.6833,63.4167,27.15,77,100,4.99,MU,1704643267
185,alesund,62.4723,6.1549,1.08,55,75,4.63,NO,1704643467
186,uturoa,-16.7333,-151.4333,26.97,77,65,4.79,PF,1704643478
187,palmer,42.1584,-72.3287,-0.93,84,100,5.66,US,1704643375
188,port blair,11.6667,92.75,26.6,72,16,4.65,IN,1704643478
189,iquique,-20.2208,-70.1431,23.02,70,4,4.6,CL,1704643478
190,diapaga,12.0708,1.7889,35.77,7,97,2.43,BF,1704643479
191,mayya,61.7333,130.2811,-49.27,100,60,1.31,RU,1704643479
192,zhanaozen,43.3,52.8,6.76,91,76,7.61,KZ,1704643479
193,aasiaat,68.7098,-52.8699,-10.42,78,100,4.33,GL,1704643479
194,metlili chaamba,32.2667,3.6333,14.52,25,0,4.63,DZ,1704643480
195,howard springs,-12.497,131.047,26.95,95,100,1.61,AU,1704643480
196,nusaybin,37.0778,41.2178,9.77,66,0,2.06,TR,1704643480
197,san antonio de pale,-1.4014,5.6325,27.45,75,55,4.0,GQ,1704643481
198,katabu,-4.9333,122.5167,24.82,95,85,0.2,ID,1704643481
199,saldanha,-33.0117,17.9442,22.03,74,100,10.06,ZA,1704643481
200,marquelia,16.5833,-98.8167,27.64,53,32,1.03,MX,1704643481
201,bom jesus,-9.0744,-44.3586,32.12,52,100,2.06,BR,1704643315
202,susuman,62.7833,148.1667,-38.9,99,98,0.45,RU,1704643482
203,galveston,29.3669,-94.9669,13.91,90,0,3.6,US,1704643276
204,lavington,-36.05,146.9333,21.6,100,100,2.68,AU,1704643482
205,nantong,32.0303,120.8747,1.66,66,60,3.07,CN,1704643482
206,kuusamo,65.9667,29.1833,-18.98,78,40,1.54,FI,1704643483
207,hithadhoo,-0.6,73.0833,28.25,78,98,6.65,MV,1704643483
208,timbuktu,16.7735,-3.0074,32.74,7,82,4.11,ML,1704643483
209,acarau,-2.8856,-40.12,31.12,59,78,7.2,BR,1704643484
210,chibougamau,49.9168,-74.3659,-14.21,78,100,4.63,CA,1704643372
211,iskateley,67.6803,53.1512,-9.99,95,98,4.47,RU,1704643484
212,forster,-32.1667,152.5167,21.32,82,90,6.61,AU,1704643484
213,pakxan,18.3778,103.6601,23.85,64,22,1.32,LA,1704643485
214,morehead city,34.7229,-76.726,11.01,85,100,4.63,US,1704643381
215,makhambet,47.6667,51.5833,0.63,97,100,5.07,KZ,1704643485
216,nadym,65.5333,72.5167,-22.12,95,100,2.85,RU,1704643485
217,port alfred,-33.5906,26.891,22.32,83,21,2.24,ZA,1704643486
218,mossel bay,-34.1831,22.146,17.96,83,100,3.13,ZA,1704643486
219,guerrero negro,27.9769,-114.0611,16.21,56,6,5.54,MX,1704643487
220,berezovyy,51.6667,135.7,-23.12,96,99,0.87,RU,1704643487
221,keelung,25.1283,121.7419,18.08,56,100,5.78,TW,1704643488
222,awjilah,29.1081,21.2869,16.08,19,1,4.23,LY,1704643488
223,taro,-8.3862,115.28,24.0,90,100,0.49,ID,1704643488
224,tshikapa,-6.4167,20.8,24.88,91,100,0.86,CD,1704643489
225,magadan,59.5667,150.8,-32.16,83,8,2.82,RU,1704643489
226,jamestown,42.097,-79.2353,0.77,99,100,4.12,US,1704642799
227,skjern,55.95,8.5,-5.88,88,5,3.63,DK,1704643489
228,kingston,17.997,-76.7936,30.53,68,20,10.29,JM,1704643489
229,ceeldheer,3.8488,47.1806,25.25,66,63,11.33,SO,1704643490
230,nizhneudinsk,54.9076,99.0276,-19.2,97,34,1.38,RU,1704643490
231,revelstoke,50.9832,-118.2023,1.01,80,100,5.14,CA,1704643490
232,san rafael,-34.6177,-68.3301,28.42,21,0,4.79,AR,1704643491
233,skhira,34.2992,10.07,14.82,39,13,9.47,TN,1704643492
234,jiuquan,39.7432,98.5174,-1.99,30,87,2.29,CN,1704643492
235,luganville,-15.5333,167.1667,26.13,87,100,0.89,VU,1704643492
236,kerikeri,-35.2268,173.9474,19.95,91,27,2.23,NZ,1704643492
237,revda,56.801,59.9303,-17.33,94,100,4.04,RU,1704643493
238,kismayo,-0.3582,42.5454,27.15,75,90,8.28,SO,1704643493
239,gimbi,9.1667,35.8333,18.86,41,100,1.43,ET,1704643493
240,flying fish cove,-10.4217,105.6791,25.82,94,100,2.06,CX,1704643402
241,boali,4.8005,18.1275,35.55,13,17,2.25,CF,1704643493
242,fale old settlement,-9.3852,-171.2468,27.34,80,92,6.01,TK,1704643494
243,faranah,10.0404,-10.7434,35.94,9,68,2.66,GN,1704643494
244,jinan,36.6683,116.9972,-0.64,33,24,1.39,CN,1704643494
245,ternate,0.8,127.4,27.07,80,79,2.8,ID,1704643494
246,padang,-0.9492,100.3543,27.03,88,100,1.42,ID,1704643455
247,carnarvon,-24.8667,113.6333,23.19,83,0,6.86,AU,1704643495
248,lata,40.1629,-8.3327,12.26,57,9,1.07,PT,1704643495
249,caras,-9.0467,-77.8114,23.01,58,61,1.29,PE,1704643495
250,dinghaicun,26.2847,119.7936,11.51,72,99,8.11,CN,1704643495
251,jining,35.405,116.5814,-1.42,44,7,3.08,CN,1704643496
252,shingu,33.7333,135.9833,3.56,56,1,5.43,JP,1704643496
253,shubarshi,48.5872,57.1869,-0.54,94,100,8.19,KZ,1704643497
254,wynyard,-41.0,145.7167,17.3,96,100,1.66,AU,1704643497
255,badger,64.8,-147.5333,-12.05,74,75,3.6,US,1704643497
256,kiffa,16.6166,-11.4045,33.18,7,0,2.69,MR,1704643497
257,kedrovyy,56.1667,91.8167,-20.63,100,88,1.68,RU,1704643498
258,buseresere,-3.0236,31.8747,20.82,81,94,0.65,TZ,1704643498
259,kailua-kona,19.6406,-155.9956,22.55,83,0,3.09,US,1704643430
260,kolda,12.8833,-14.95,38.17,14,0,3.09,SN,1704643498
261,sao jose da coroa grande,-8.8978,-35.1478,30.41,51,1,4.97,BR,1704643498
262,udachny,66.4167,112.4,-24.02,99,100,1.49,RU,1704643499
263,sesheke,-17.4759,24.2968,29.39,44,84,0.21,ZM,1704643499
264,kaiapoi,-43.3783,172.6401,16.71,90,34,4.63,NZ,1704643499
265,ust'-ilimsk,58.0006,102.6619,-21.42,100,99,1.79,RU,1704643499
266,toliara,-23.35,43.6667,27.59,80,37,3.88,MG,1704643500
267,agara,42.0376,43.8238,5.31,63,98,2.03,GE,1704643500
268,lan sak,15.4529,99.5761,24.0,58,8,1.42,TH,1704643501
269,ust'-kut,56.7938,105.7672,-14.62,92,100,3.61,RU,1704643490
270,bamboo flat,11.7,92.7167,26.58,72,14,4.52,IN,1704643502
271,goundam,16.4145,-3.6708,33.18,7,99,4.3,ML,1704643502
272,suva,-18.1416,178.4415,23.71,100,40,0.51,FJ,1704643503
273,mazagao,-0.115,-51.2894,25.96,88,100,1.43,BR,1704643503
274,lansdowne,39.9382,-75.2719,3.67,95,100,3.06,US,1704643503
275,aioun,16.6614,-9.6149,32.64,7,0,3.53,MR,1704643504
276,nouadhibou,20.931,-17.0347,31.99,12,1,1.54,MR,1704643504
277,kondagaon,19.6,81.6667,17.59,49,1,2.47,IN,1704643504
278,sao felix do xingu,-6.6447,-51.995,23.96,96,100,1.0,BR,1704643505
279,nuuk,64.1835,-51.7216,-3.66,80,100,11.83,GL,1704643505
280,lihue,21.9789,-159.3672,19.64,82,19,0.4,US,1704643252
281,kourou,5.1552,-52.6478,30.03,60,100,3.92,GF,1704643222
282,bogale,16.2833,95.4,23.19,64,11,1.88,MM,1704643506
283,laojunmiao,39.8333,97.7333,-4.26,30,98,1.22,CN,1704643507
284,port saint john's,-31.6229,29.5448,22.57,89,100,3.34,ZA,1704643507
285,nansio,-2.1333,33.05,24.66,62,100,1.14,TZ,1704643507
286,pandan,14.0453,124.1694,25.83,87,93,7.15,PH,1704643508
287,touros,-5.1989,-35.4608,30.84,59,8,5.4,BR,1704643362
288,constantia,44.1833,28.65,9.38,91,63,8.19,RO,1704643508
289,ko pha ngan,9.7578,100.0291,26.38,66,98,2.22,TH,1704643508
290,lebu,-37.6167,-73.65,17.46,73,29,4.38,CL,1704643509
291,usinsk,65.9939,57.5281,-28.29,100,100,2.68,RU,1704643509
292,martuk,50.7475,56.5056,-8.86,92,100,6.2,KZ,1704643510
293,wad rawah,15.1603,33.1397,27.96,20,26,2.66,SD,1704643510
294,obertraubling,48.9713,12.175,-0.17,86,100,0.89,DE,1704643511
295,hilo,19.7297,-155.09,19.51,99,16,0.45,US,1704643274
296,huarmey,-10.0681,-78.1522,24.8,76,67,4.55,PE,1704643511
297,xining,36.6167,101.7667,-3.05,29,7,0.7,CN,1704643511
298,dundee,56.5,-2.9667,3.66,90,20,1.54,GB,1704643512
299,nushki,29.5542,66.0215,14.21,58,70,2.83,PK,1704643512
300,bodaybo,57.8506,114.1933,-15.87,99,100,0.25,RU,1704643513
301,vilyuysk,63.7553,121.6247,-36.67,95,100,2.68,RU,1704643513
302,talnakh,69.4865,88.3972,-19.89,98,100,4.34,RU,1704643513
303,seoni,22.0833,79.5333,18.33,70,22,3.11,IN,1704643513
304,berezhani,49.45,24.9333,-5.88,94,100,6.83,UA,1704643514
305,page,36.9147,-111.4558,-0.12,92,100,2.24,US,1704643514
306,naryshkino,52.9678,35.7268,-17.12,95,74,4.17,RU,1704643514
307,hedemora,60.2797,15.9886,-14.8,94,25,1.31,SE,1704643514
308,buulobarde,3.8538,45.5674,29.49,24,85,4.51,SO,1704643515
309,tofol,5.3248,163.0078,27.82,78,95,9.53,FM,1704643515
310,chokwe,-24.5333,32.9833,32.19,43,1,5.01,MZ,1704643515
311,kota kinabalu,5.9749,116.0724,25.99,94,20,2.24,MY,1704643516
312,saguenay,48.4168,-71.0657,-9.95,79,100,8.23,CA,1704643218
313,rosa zarate,0.3333,-79.4667,26.83,84,100,1.04,EC,1704643516
314,puerto baquerizo moreno,-0.9,-89.6,24.55,88,75,6.69,EC,1704643517
315,bardai,11.65,7.2333,30.75,8,0,4.66,NG,1704643517
316,sur,22.5667,59.5289,22.98,61,60,2.75,OM,1704643517
317,aripuana,-9.1667,-60.6333,29.24,72,96,1.42,BR,1704643518
318,margate,51.3813,1.3862,4.94,75,100,3.13,GB,1704643380
319,saipan,15.1355,145.701,26.39,89,40,4.63,MP,1704643519
320,saudarkrokur,65.7461,-19.6394,4.96,82,100,7.75,IS,1704643519
321,san antonio,29.4241,-98.4936,13.83,68,0,4.12,US,1704643499
322,wuchang,44.9143,127.15,-23.42,98,22,2.93,CN,1704643519
323,island harbour,50.724,-1.2758,5.68,73,9,3.58,GB,1704643520
324,kruisfontein,-34.0033,24.7314,19.94,86,100,6.26,ZA,1704643520
325,ngerengere,-6.75,38.1167,23.08,98,100,0.75,TZ,1704643520
326,bengkulu,-3.8004,102.2655,25.34,85,100,0.96,ID,1704643521
327,ugoofaaru,5.6667,73.0,27.95,74,32,2.1,MV,1704643521
328,almeirim,-1.5233,-52.5817,26.35,78,100,1.75,BR,1704643317
329,acapulco de juarez,16.8634,-99.8901,26.97,58,64,1.15,MX,1704643279
330,severo-yeniseyskiy,60.3725,93.0408,-30.79,100,44,1.79,RU,1704643522
331,uglich,57.5275,38.3317,-27.01,98,7,1.8,RU,1704643522
332,djougou,9.7085,1.666,35.65,10,4,1.6,BJ,1704643522
333,northam,51.0333,-4.2167,4.78,76,44,4.83,GB,1704643522
334,itarare,-24.1125,-49.3317,33.8,27,7,2.69,BR,1704643523
335,pinarbasi,38.7229,36.3931,3.44,77,100,3.17,TR,1704643523
336,alofi,-19.0595,-169.9187,24.94,94,61,1.03,NU,1704643523
337,hasaki,35.7333,140.8333,3.22,43,76,8.11,JP,1704643523
338,tegueste,28.5167,-16.3167,18.33,83,20,2.68,ES,1704643524
339,olovyannaya,50.95,115.5667,-29.26,97,15,1.05,RU,1704643524
340,lazaro cardenas,17.9583,-102.2,25.81,57,100,1.34,MX,1704643524
341,nantucket,41.2835,-70.0995,6.08,100,100,9.77,US,1704643525
342,batticaloa,7.7102,81.6924,26.22,85,81,3.25,LK,1704643525
343,seminole,28.7086,-81.2081,17.45,72,40,5.14,US,1704643329
344,fort bragg,35.139,-79.006,12.89,77,0,5.14,US,1704643525
345,tillmans corner,30.5902,-88.1708,12.88,57,0,6.17,US,1704643526
346,holualoa,19.6228,-155.9522,20.48,80,0,3.09,US,1704643526
347,papao,-17.75,-149.55,24.82,82,95,5.08,PF,1704643526
348,hobyo,5.3505,48.5268,25.3,69,65,9.47,SO,1704643526
349,carlsbad,33.1581,-117.3506,13.66,55,0,4.63,US,1704643447
350,opuwo,-18.0607,13.84,27.33,50,99,2.32,NA,1704643527
351,ulaangom,49.9811,92.0667,-20.11,98,100,0.54,MN,1704643527
352,suomussalmi,64.8869,28.9078,-16.07,98,100,2.9,FI,1704643528
353,san carlos,9.6612,-68.5827,33.35,37,31,2.35,VE,1704643528
354,annaba,36.9,7.7667,8.98,81,75,9.77,DZ,1704643529
355,ladario,-19.0047,-57.6017,34.16,55,75,3.6,BR,1704643529
356,yinchuan,38.4681,106.2731,-1.94,31,99,1.53,CN,1704643529
357,conduaga,8.862,117.4893,26.13,84,78,1.07,PH,1704643530
358,haiku-pauwela,20.9219,-156.3051,20.58,88,0,3.6,US,1704643530
359,juan griego,11.0817,-63.9655,28.63,63,42,5.58,VE,1704643530
360,el calafate,-50.3408,-72.2768,12.81,57,88,6.51,AR,1704643531
361,popondetta,-8.7537,148.2534,23.73,96,100,1.31,PG,1704643531
362,hammerfest,70.6634,23.6821,0.25,86,100,5.14,NO,1704643531
363,lulea,65.5842,22.1547,-21.96,84,0,1.03,SE,1704643531
364,mili,6.0815,171.735,27.88,77,87,8.04,MH,1704643532
365,khandyga,62.6667,135.6,-49.72,100,86,0.93,RU,1704643532
366,banda aceh,5.5577,95.3222,25.85,84,99,5.31,ID,1704643532
367,siyabuswa,-25.1132,29.0445,30.83,31,28,4.08,ZA,1704643532
368,port isabel,26.0734,-97.2086,19.45,84,0,2.57,US,1704643533
369,san jeronimo de juarez,17.1333,-100.4667,27.11,59,71,1.5,MX,1704643533
370,rasht,37.2808,49.5832,10.9,76,0,2.06,IR,1704643533
371,shakawe,-18.3667,21.85,29.07,44,93,1.58,BW,1704643533
372,frenda,35.0654,1.0495,6.43,53,77,5.49,DZ,1704643534
373,westport,41.1415,-73.3579,3.04,87,100,7.2,US,1704643299
374,lyantor,61.6195,72.1555,-20.21,96,100,4.66,RU,1704643534
375,camarinas,43.1311,-9.1817,13.85,61,5,3.91,ES,1704643534
376,torghay,49.6339,63.4981,0.72,98,100,7.89,KZ,1704643535
377,lompoc,34.6391,-120.4579,7.4,69,0,6.17,US,1704643327
378,colonia,50.9333,6.95,0.54,70,75,7.2,DE,1704643502
379,ghanzi,-21.5667,21.7833,31.11,28,95,3.07,BW,1704643535
380,mingshui,36.7167,117.5,-2.07,40,40,2.95,CN,1704643536
381,ambikapur,23.1167,83.2,15.87,72,54,1.71,IN,1704643536
382,thinadhoo,0.5333,72.9333,28.61,76,98,5.71,MV,1704643536
383,dodola,6.9833,39.1833,16.47,63,82,1.06,ET,1704643536
384,swakopmund,-22.6833,14.5333,27.47,74,33,7.44,NA,1704643536
385,happy valley-goose bay,53.3168,-60.3315,-15.83,47,75,8.23,CA,1704643537
386,taoudenni,22.6783,-3.9836,29.37,13,3,2.35,ML,1704643537
387,san julian,21.0167,-102.1667,13.41,47,100,2.53,MX,1704643537
388,georgetown,5.4112,100.3354,26.08,91,20,1.54,MY,1704643436
389,yoko,5.5333,12.3167,31.68,14,69,1.18,CM,1704643538
390,tosontsengel,48.7567,98.2839,-13.73,97,100,0.81,MN,1704643538
391,al bawiti,28.3492,28.8659,18.34,21,0,3.13,EG,1704643538
392,berezovo,63.9381,65.0419,-22.84,96,100,1.5,RU,1704643538
393,minas de marcona,-15.2119,-75.1103,21.88,61,24,6.22,PE,1704643538
394,tabligbo,6.5833,1.5,33.54,45,10,5.75,TG,1704643539
395,mildura,-34.2,142.15,19.48,93,55,4.57,AU,1704643333
396,ilhabela,-23.7781,-45.3581,27.72,70,1,2.8,BR,1704643368
397,zarand,30.8127,56.564,5.05,45,2,2.58,IR,1704643539
398,baidoa,3.1138,43.6498,28.68,27,41,4.51,SO,1704643540
399,tolanaro,-25.0319,46.9987,26.04,89,40,9.26,MG,1704643540
400,lashkar gah,31.5938,64.3716,12.11,73,49,2.73,AF,1704643540
401,boende,-0.2167,20.8667,30.23,52,94,2.22,CD,1704643540
402,bandarbeyla,9.4942,50.8122,24.97,68,9,9.49,SO,1704643541
403,pasuquin,18.3328,120.6177,21.97,88,20,1.03,PH,1704643541
404,brookings,44.3114,-96.7984,-11.0,91,100,0.0,US,1704643542
405,ar ruways,24.1103,52.7306,20.38,58,31,6.53,AE,1704643542
406,zalaszentgrot,46.9447,17.0792,-0.02,80,100,11.6,HU,1704643542
407,agat village,13.3886,144.6585,26.06,96,100,2.06,GU,1704643542
408,sandnessjoen,66.0217,12.6316,1.29,93,75,12.86,NO,1704643543
409,wellington,-41.2866,174.7756,13.81,77,49,1.54,NZ,1704643540
410,rocky mountain house,52.3668,-114.9188,-15.94,85,100,1.54,CA,1704643543
411,ilebo,-4.3167,20.5833,27.93,72,60,1.01,CD,1704643543
412,gisborne,-38.6533,178.0042,11.69,87,5,2.56,NZ,1704643544
413,ancud,-41.8697,-73.8203,15.91,67,8,4.85,CL,1704643544
414,shiqian,27.5225,108.2281,7.71,91,99,0.94,CN,1704643544
415,huancavelica,-12.7667,-74.9833,10.41,63,88,3.93,PE,1704643544
416,regina,50.4501,-104.6178,-8.94,84,100,4.63,CA,1704643545
417,kaoma,-14.7833,24.8,24.28,79,96,1.65,ZM,1704643545
418,darwin,-12.4611,130.8418,26.99,89,100,1.03,AU,1704643545
419,taksimo,56.3444,114.8794,-25.24,94,98,0.46,RU,1704643545
420,shyryayeve,47.3805,30.1964,3.33,94,100,7.72,UA,1704643546
421,kavieng,-2.5744,150.7967,27.8,79,83,1.65,PG,1704643546
422,sihanoukville,10.6093,103.5296,24.97,94,20,2.06,KH,1704643546
423,oltinko'l,40.8011,72.1634,8.05,48,89,0.51,UZ,1704643547
424,walvis bay,-22.9575,14.5053,27.53,47,7,8.75,NA,1704643547
425,tadine,-21.55,167.8833,24.93,85,98,5.58,NC,1704643547
426,finote selam,10.7,37.2667,21.59,38,98,3.07,ET,1704643547
427,pisco,-13.7,-76.2167,24.03,78,20,3.6,PE,1704643358
428,sinabang,2.4803,96.3801,26.95,80,91,1.2,ID,1704643548
429,nianzishan,47.5167,122.8833,-24.18,93,42,1.37,CN,1704643548
430,vikulovo,56.8167,70.6107,-7.44,95,100,6.18,RU,1704643548
431,port lincoln,-34.7333,135.8667,16.51,84,93,7.25,AU,1704643553
432,verkhneural'sk,53.8769,59.2106,-10.95,88,100,4.54,RU,1704643554
433,lai chau,22.3997,103.4517,14.07,96,3,1.0,VN,1704643554
434,greenville,35.6127,-77.3663,12.29,83,40,4.12,US,1704643142
435,kapuskasing,49.4169,-82.4331,-10.95,85,100,3.09,CA,1704643428
436,lorengau,-2.0226,147.2712,27.69,76,99,1.15,PG,1704643554
437,kokkola,63.8385,23.1307,-4.91,93,100,5.66,FI,1704643555
438,mount pearl,47.5166,-52.7813,-5.48,72,37,5.81,CA,1704643555
439,twon-brass,4.3151,6.2418,29.22,73,16,6.12,NG,1704643555
440,crowley,30.2141,-92.3746,9.42,67,59,2.06,US,1704643346
441,east london,-33.0153,27.9116,21.52,83,75,5.14,ZA,1704643296
442,tippi,7.2,35.45,22.75,64,55,0.2,ET,1704643556
443,coquimbo,-29.9533,-71.3436,19.85,77,75,6.17,CL,1704643337
444,reggane,26.7158,0.1714,23.24,18,99,1.66,DZ,1704643556
445,kirensk,57.7853,108.1119,-11.13,93,99,3.13,RU,1704643556
446,tocoa,15.6833,-86.0,27.79,51,0,0.5,HN,1704643557
447,challakere,14.3167,76.65,23.68,56,9,6.55,IN,1704643557
448,erdenet,49.0333,104.0833,-18.26,88,97,2.03,MN,1704643557
449,dunedin,-45.8742,170.5036,12.67,91,72,1.79,NZ,1704643308
450,centerville,39.6284,-84.1594,1.92,92,100,5.14,US,1704643356
451,chernyshevskiy,63.0128,112.4714,-22.83,92,99,4.06,RU,1704643558
452,pankrushikha,53.8319,80.3406,-11.36,97,77,3.98,RU,1704643558
453,lexington,37.9887,-84.4777,2.41,87,98,2.24,US,1704643400
454,turabah,21.2141,41.6331,20.21,37,54,7.72,SA,1704643558
455,cole harbour,44.6724,-63.4751,-3.49,76,100,2.24,CA,1704643558
456,anori,-3.7728,-61.6442,33.94,49,79,2.38,BR,1704643362
457,ankazoabo,-22.2833,44.5167,25.15,86,64,2.26,MG,1704643559
458,port augusta,-32.5,137.7667,20.49,80,41,5.84,AU,1704643559
459,manta,-0.95,-80.7333,26.88,74,75,7.15,EC,1704643559
460,oleksandriya,48.6696,33.1159,-3.89,94,100,8.14,UA,1704643560
461,kenai,60.5544,-151.2583,2.27,89,100,6.17,US,1704643560
462,tazacorte,28.629,-17.9293,21.75,78,20,1.54,ES,1704643560
463,madera,37.1666,-119.8343,3.95,93,8,1.61,US,1704643560
464,san-pedro,4.7485,-6.6363,29.99,66,50,4.38,CI,1704643560
465,nchelenge,-9.3451,28.734,23.65,79,86,2.17,ZM,1704643561
466,lapinlahti,65.5833,30.5667,-16.5,94,94,3.86,RU,1704643561
467,quepos,9.4236,-84.1652,29.79,50,42,1.77,CR,1704643561
468,le port,-20.9373,55.2919,27.0,82,73,1.05,RE,1704643561
469,heroica guaymas,27.9333,-110.9,9.65,50,0,0.0,MX,1704643496
470,gua musang,4.8823,101.9644,23.03,98,100,0.07,MY,1704643562
471,upper grand lagoon,30.1633,-85.7408,11.08,77,0,4.63,US,1704643563
472,kudymkar,59.0173,54.656,-22.7,94,100,4.15,RU,1704643564
473,siwa oasis,29.2041,25.5195,18.33,32,7,3.93,EG,1704643564
474,mar del plata,-38.0023,-57.5575,23.62,82,20,4.12,AR,1704643565
475,mandera,3.9366,41.867,32.62,22,46,4.53,KE,1704643566
476,domoni,-12.2569,44.5319,28.07,80,62,2.94,KM,1704643566
477,paracuru,-3.41,-39.0306,29.5,60,83,5.27,BR,1704643566
478,saint croix,17.7397,-64.7388,29.25,70,0,7.2,VI,1704643567
479,sanya,18.2431,109.505,21.09,78,0,3.0,CN,1704643567
480,mataundh,25.45,80.15,15.5,67,0,2.02,IN,1704643568
481,kilkenny,52.6542,-7.2522,3.18,92,7,1.23,IE,1704643533
482,crucecita,-28.95,-58.9833,32.87,45,83,2.47,AR,1704643568
483,kashgar,39.4547,75.9797,-1.44,50,20,2.0,CN,1704643569
484,cho dok,10.7,105.1167,25.1,76,86,4.07,VN,1704643569
485,argo,37.6333,22.7333,15.99,64,6,5.04,GR,1704643569
486,namibe,-15.1961,12.1522,23.46,74,100,4.45,AO,1704643569
487,belyye berega,53.2085,34.6641,-15.7,92,67,3.29,RU,1704643570
488,moussoro,13.6408,16.4901,29.11,7,0,3.48,TD,1704643570
489,santa isabel,-23.3156,-46.2214,33.61,32,2,2.35,BR,1704643480
490,altai,46.3722,96.2583,-10.58,87,93,1.04,MN,1704643571
491,itoman,26.1247,127.6694,16.43,60,100,4.12,JP,1704643571
492,bamako,12.65,-8.0,35.23,10,0,2.06,ML,1704643573
493,puerto deseado,-47.7503,-65.8938,19.15,39,31,1.86,AR,1704643573
494,pangoa,-12.1167,-73.0,30.4,54,59,1.77,PE,1704643573
495,saynshand,44.8824,110.1163,-17.7,90,87,1.54,MN,1704643574
496,westhill,57.1526,-2.2797,2.53,95,75,1.03,GB,1704643574
497,nazare,-13.035,-39.0144,32.91,52,100,2.09,BR,1704643575
498,bueng kan,18.363,103.6519,23.84,64,22,1.34,TH,1704643575
499,vorkuta,67.5,64.0,-23.99,100,100,3.1,RU,1704643575
500,mpanda,-6.3655,31.0409,21.56,89,63,0.67,TZ,1704643576
501,nadi,-17.8,177.4167,25.0,88,20,2.57,FJ,1704643577
502,broken hill,-31.95,141.4333,22.94,66,71,4.96,AU,1704643577
503,red chute,32.556,-93.6132,9.03,81,0,0.0,US,1704643577
504,stovring,56.8854,9.8384,-6.21,92,9,2.7,DK,1704643578
505,plettenberg bay,-34.0527,23.3716,16.58,88,100,1.28,ZA,1704643579
506,puerto aysen,-45.4,-72.7,10.13,99,100,1.62,CL,1704643579
507,vila velha,-20.3297,-40.2925,28.97,82,40,5.14,BR,1704643580
508,tanout,14.9709,8.8879,28.83,8,59,5.62,NE,1704643580
509,santa elena de uairen,4.6167,-61.1333,28.98,44,72,1.13,VE,1704643580
510,tateyama,34.9833,139.8667,8.96,57,20,12.86,JP,1704643580
511,nema,57.5067,50.5011,-24.62,94,7,3.58,RU,1704643581
512,diebougou,10.9667,-3.25,36.57,10,60,1.16,BF,1704643581
513,pa daet,19.5049,99.9924,20.92,67,0,1.04,TH,1704643581
514,miracema do tocantins,-9.5618,-48.3967,30.63,59,87,3.19,BR,1704643581
515,guozhen,34.3659,107.359,2.03,57,8,0.24,CN,1704643585
516,madimba,-10.4,40.3333,25.96,84,100,3.09,TZ,1704643585
517,massena,44.9281,-74.8919,-5.49,93,100,3.6,US,1704643585
518,zamosc,50.7231,23.252,-7.5,94,100,6.71,PL,1704643585
519,kodinsk,58.6881,99.1844,-26.97,100,33,1.02,RU,1704643586
520,mo i rana,66.3128,14.1428,0.74,93,100,1.03,NO,1704643586
521,port said,31.2565,32.2841,19.99,68,0,2.57,EG,1704643586
522,lucheng,31.2336,117.2806,4.36,59,99,2.91,CN,1704643586
523,solleftea,63.1667,17.2667,-22.08,99,89,1.49,SE,1704643587
524,altania,-23.8744,-53.9017,32.51,41,0,2.28,BR,1704643324
525,jati,24.3539,68.2671,20.13,26,0,4.43,PK,1704643587
526,geraldton,-28.7667,114.6,24.23,64,60,4.63,AU,1704643319
527,riosucio,5.4216,-75.7032,22.22,49,20,0.86,CO,1704643588
528,xicotencatl,23.0167,-98.8833,19.25,65,100,0.87,MX,1704643588
529,jinchang,38.4953,102.1739,-0.71,26,29,0.72,CN,1704643588
530,saint-francois,46.4154,3.9054,2.69,83,100,6.69,FR,1704643588
531,mejit,10.2753,170.8646,27.01,63,97,8.24,MH,1704643589
532,keren,15.7778,38.4581,20.48,62,8,2.47,ER,1704643589
533,tonota,-21.4833,27.4833,32.72,17,4,5.91,BW,1704643589
534,pindushi,62.9152,34.58,-16.31,96,93,2.24,RU,1704643589
535,merke,42.8728,73.1786,5.84,63,100,3.88,KZ,1704643590
536,thal,35.4791,72.2439,-1.86,52,11,3.35,PK,1704643590
537,christchurch,-43.5333,172.6333,16.62,88,28,4.63,NZ,1704643404
538,humaita,-7.5061,-63.0208,27.99,77,99,0.34,BR,1704643590
539,tevriz,57.509,72.4042,-13.1,95,100,4.28,RU,1704643591
540,oranjemund,-28.55,16.4333,19.28,80,89,10.86,NA,1704643591
541,idfu,24.9803,32.8747,23.26,23,0,3.07,EG,1704643591
542,lisakovsk,52.5369,62.4936,-4.66,87,100,6.84,KZ,1704643591
543,laguna,38.421,-121.4238,3.41,92,0,3.6,US,1704643591
544,shaowu,27.3409,117.4831,12.93,82,100,0.63,CN,1704643592
545,camocim,-2.9022,-40.8411,32.42,55,62,5.79,BR,1704643592
546,karratha,-20.7377,116.8463,32.87,30,0,7.62,AU,1704643592
547,bel ombre,-4.6167,55.4167,26.91,78,40,4.63,SC,1704643592
548,assab,13.0092,42.7394,26.17,67,83,9.13,ER,1704643593
549,igrim,63.1906,64.4162,-19.65,95,100,1.56,RU,1704643593
550,pemangkat,1.1667,108.9667,24.66,90,100,1.62,ID,1704643593
551,biltine,14.5333,20.9167,27.34,9,4,1.54,TD,1704643594
552,xai-xai,-25.0519,33.6442,26.15,72,0,5.51,MZ,1704643594
553,maraba,-5.3686,-49.1178,25.1,88,75,6.17,BR,1704643386
554,dellys,36.9172,3.9131,12.65,58,9,11.49,DZ,1704643595
555,ibarreta,-25.2144,-59.8585,41.97,21,71,5.09,AR,1704643595
556,rahuri,19.3833,74.65,24.31,45,79,2.44,IN,1704643595
557,aksaray,38.3726,34.0254,8.24,54,100,2.63,TR,1704643595
558,san pedro,14.35,121.0167,26.22,76,20,3.13,PH,1704643596
559,ulsteinvik,62.3432,5.8487,1.07,62,16,3.78,NO,1704643596
560,kill devil hills,36.0307,-75.676,11.0,85,100,5.14,US,1704643596
561,greymouth,-42.4667,171.2,12.49,89,41,1.74,NZ,1704643596
562,trujillo,-8.116,-79.03,21.98,83,75,4.12,PE,1704643597
563,takestan,36.0696,49.6959,6.07,32,0,1.55,IR,1704643597
564,horta,38.5333,-28.6333,17.23,72,20,9.26,PT,1704643597
565,trairi,-3.2778,-39.2689,31.2,57,77,5.25,BR,1704643373
566,middlesbrough,54.5762,-1.2348,5.16,90,75,0.0,GB,1704643394
567,dakhla,23.6848,-15.958,21.01,68,6,9.26,EH,1704643155
568,zhangjiakou,40.81,114.8794,-12.78,73,3,0.63,CN,1704643598
569,ibiza,38.9088,1.433,14.9,41,20,9.26,ES,1704643599
570,aginskoye,51.1,114.53,-20.08,91,17,2.7,RU,1704643599
571,seaside,36.6111,-121.8516,6.19,86,0,1.54,US,1704643599
572,shagonar,51.5333,92.8,-20.17,97,95,0.42,RU,1704643600
573,ntoum,0.3833,9.7833,30.87,62,66,2.56,GA,1704643600
574,yenangyaung,20.4667,94.8833,20.28,54,2,1.95,MM,1704643600
